Time,Pitch angle,Roll angle,Pitch rate,Roll rate,Yaw rate,Long acc,Lat acc,Norm acc,True HDG,IRS GS,IRS Alt,IRS Vert acc,IRS Flight path angle,Press alt,IAS,TAS,Temp,GPS Track,GPS GS,GPS Alt,Fuel,Elevator,Aileron,Rudder,Tab Angle,True AoA
0.06,-2.087,-0.363,-0.465,0.223,11.047,-0.061,0.089,1.017,35.392,8.25,155.5,0.02,0,203,22,25,14,25,8,41,669.395,23.584,-1.092,-1.1,-7.594,2.457
0.08,-2.098,-0.368,-0.52,0.156,11.043,-0.063,0.089,1.012,35.739,8.25,155.5,0.015,0,203,22,25,14,25,8,41,669.395,23.507,-1.09,-1.096,-7.567,2.456
0.1,-2.109,-0.374,-0.598,0.074,11.039,-0.064,0.088,1.005,35.739,8.25,155.5,0.007,0,203,22,25,14,25,8,41,669.395,23.692,-1.088,-1.12,-7.632,2.455
0.12,-2.115,-0.379,-0.598,0.066,11.035,-0.064,0.088,0.988,36.085,8.125,155.5,-0.01,0,203,22,25,14,25,8,41,669.395,23.493,-1.082,-1.107,-7.562,2.456
0.141,-2.12,-0.379,-0.578,0.094,11.031,-0.065,0.09,0.981,36.425,8.125,155.5,-0.017,0,203,22,25,14,25,8,41,669.395,23.492,-1.081,-1.094,-7.562,2.456
0.161,-2.12,-0.374,-0.469,0.23,11.012,-0.067,0.092,0.973,36.425,8.125,155.5,-0.024,0,203,22,25,14,25,8,41,669.395,23.75,-1.079,-1.089,-7.653,2.456
0.181,-2.115,-0.368,-0.383,0.312,10.988,-0.067,0.092,0.967,36.771,8.125,156,-0.031,0,203,22,25,14,25,8,41,669.395,23.502,-1.087,-1.094,-7.566,2.457
0.201,-2.109,-0.363,-0.273,0.41,10.957,-0.071,0.095,0.957,36.771,8.125,156,-0.04,0,203,22,25,14,25,8,41,669.395,23.482,-1.087,-1.082,-7.558,2.456
0.221,-2.104,-0.352,-0.145,0.52,10.926,-0.073,0.097,0.954,37.117,8.125,156,-0.043,0,203,22,25,14,25,8,41,669.395,23.484,-1.091,-1.05,-7.559,2.456
0.241,-2.087,-0.335,0.137,0.738,10.863,-0.076,0.099,0.952,37.452,8,156,-0.045,0,203,22,25,14,25,8,41,669.395,23.527,-1.094,-1.034,-7.575,2.457
0.261,-2.071,-0.324,0.281,0.816,10.844,-0.079,0.099,0.95,37.452,8,156,-0.047,0,203,22,25,14,25,8,41,669.395,23.551,-1.094,-1.009,-7.583,2.455
0.281,-2.054,-0.319,0.434,0.867,10.828,-0.078,0.099,0.949,37.793,8,156,-0.048,0,203,22,25,14,25,8,41,669.395,23.485,-1.092,-1.046,-7.56,2.454
0.301,-2.021,-0.308,0.699,0.887,10.82,-0.077,0.099,0.951,38.134,8,156,-0.047,0,203,22,25,14,25,8,41,669.395,23.513,-1.092,-1.005,-7.569,2.454
0.321,-2.005,-0.308,0.816,0.828,10.789,-0.077,0.1,0.954,38.134,8,156,-0.044,0,203,22,25,14,25,8,41,669.395,23.484,-1.019,-0.986,-7.559,2.454
0.341,-1.983,-0.308,0.918,0.742,10.777,-0.077,0.098,0.964,38.474,8,156,-0.033,0,203,22,25,14,25,8,41,669.395,23.481,-1.094,-1.025,-7.558,2.453
0.361,-1.967,-0.313,1,0.633,10.77,-0.077,0.097,0.971,38.809,7.875,156,-0.026,0,203,22,25,14,25,8,41,669.395,23.483,-1.054,-1.036,-7.559,2.454
0.381,-1.934,-0.319,1.086,0.414,10.742,-0.078,0.096,0.981,38.809,7.875,156,-0.017,0,203,22,25,14,25,8,41,669.395,23.481,-1.007,-1.011,-7.558,2.454
0.401,-1.917,-0.33,1.082,0.316,10.727,-0.082,0.094,1.001,39.144,7.875,156,0.004,0,203,22,25,14,25,8,41,669.395,23.506,-1.025,-1.003,-7.567,2.453
0.421,-1.906,-0.335,1.051,0.227,10.707,-0.082,0.091,1.009,39.479,7.875,156,0.012,0,203,22,25,14,25,8,41,669.395,23.495,-1.021,-1.031,-7.563,2.453
0.441,-1.89,-0.346,0.898,0.094,10.684,-0.08,0.088,1.017,39.479,7.875,156,0.02,0,203,22,25,14,25,8,41,669.395,23.484,-1.054,-1.07,-7.559,2.453
0.461,-1.884,-0.346,0.785,0.07,10.664,-0.079,0.085,1.025,39.814,7.875,156,0.028,0,203,22,25,14,25,8,41,669.395,23.485,-1.005,-1.089,-7.56,2.453
0.481,-1.884,-0.346,0.652,0.086,10.66,-0.079,0.084,1.039,39.814,7.875,156,0.042,0,203,22,25,14,25,8,41,669.395,23.478,-1.003,-1.061,-7.557,2.453
0.501,-1.884,-0.341,0.504,0.125,10.66,-0.079,0.083,1.046,40.15,7.75,156,0.048,0,203,22,25,14,25,8,41,669.395,23.481,-1,-1.077,-7.558,2.453
0.521,-1.89,-0.335,0.184,0.242,10.645,-0.078,0.081,1.051,40.485,7.75,156,0.053,0,203,22,25,14,25,8,41,669.395,23.485,-1,-1.115,-7.559,2.453
0.541,-1.895,-0.33,0.031,0.328,10.633,-0.078,0.082,1.057,40.485,7.75,156,0.057,0,203,22,25,14,25,8,41,669.395,23.506,-0.997,-1.094,-7.567,2.453
0.561,-1.901,-0.324,-0.102,0.43,10.625,-0.078,0.082,1.056,40.814,7.75,156,0.058,0,203,22,25,14,25,8,41,669.395,23.484,-0.999,-1.053,-7.56,2.453
0.581,-1.912,-0.308,-0.227,0.539,10.617,-0.078,0.081,1.054,41.149,7.75,156,0.056,0,203,22,25,14,25,8,41,669.395,23.485,-0.998,-1.044,-7.559,2.453
0.601,-1.923,-0.297,-0.398,0.707,10.605,-0.077,0.081,1.05,41.149,7.75,156,0.052,0,203,22,25,14,25,8,41,669.395,23.483,-1.015,-1.049,-7.559,2.453
0.621,-1.928,-0.291,-0.445,0.77,10.598,-0.078,0.082,1.04,41.479,7.625,156,0.042,0,203,22,25,14,25,8,41,669.395,23.488,-0.993,-1.042,-7.56,2.452
0.641,-1.928,-0.28,-0.461,0.816,10.594,-0.077,0.083,1.033,41.814,7.625,156,0.035,0,203,22,25,14,25,8,41,669.395,23.483,-0.992,-1.041,-7.559,2.452
0.661,-1.934,-0.275,-0.43,0.828,10.586,-0.076,0.084,1.026,41.814,7.625,156,0.029,0,203,22,25,14,25,8,41,669.395,23.477,-0.992,-0.938,-7.557,2.453
0.681,-1.939,-0.269,-0.402,0.789,10.582,-0.074,0.085,1.011,42.144,7.625,156,0.014,0,203,22,25,14,25,8,41,669.395,23.483,-0.99,-0.939,-7.559,2.451
0.701,-1.939,-0.269,-0.359,0.738,10.578,-0.072,0.087,1.004,42.473,7.625,156,0.006,0,203,22,25,14,25,8,41,669.395,23.486,-0.991,-0.93,-7.56,2.452
0.721,-1.939,-0.269,-0.242,0.684,10.57,-0.069,0.089,0.994,42.473,7.625,156,-0.003,0,203,22,25,14,25,8,41,669.395,23.573,-0.988,-0.838,-7.59,2.451
0.741,-1.934,-0.269,-0.172,0.543,10.562,-0.066,0.089,0.984,42.803,7.5,156,-0.014,0,203,22,25,14,25,8,41,669.395,23.481,-1.012,-0.84,-7.558,2.452
0.761,-1.928,-0.275,-0.098,0.461,10.551,-0.06,0.086,0.965,42.803,7.5,156,-0.033,0,203,22,25,14,25,8,41,669.395,23.483,-1.048,-0.839,-7.559,2.453
0.781,-1.928,-0.275,-0.027,0.379,10.539,-0.059,0.086,0.956,43.138,7.5,156,-0.042,0,203,22,25,14,25,8,41,669.395,23.523,-0.998,-0.834,-7.573,2.452
0.801,-1.917,-0.275,0.098,0.293,10.504,-0.058,0.085,0.948,43.462,7.5,156,-0.05,0,203,22,25,14,25,8,41,669.395,23.491,-0.998,-0.832,-7.562,2.452
0.821,-1.912,-0.275,0.145,0.281,10.488,-0.056,0.083,0.937,43.462,7.5,156,-0.057,0,203,22,25,14,25,8,41,669.395,23.481,-0.999,-0.835,-7.558,2.453
0.842,-1.906,-0.275,0.191,0.289,10.477,-0.055,0.078,0.936,43.792,7.5,156,-0.062,0,203,22,25,14,25,8,41,669.395,23.482,-0.999,-0.852,-7.558,2.452
0.862,-1.89,-0.269,0.285,0.305,10.461,-0.054,0.077,0.937,44.121,7.5,156,-0.062,0,203,22,25,14,25,8,41,669.395,23.499,-1.003,-0.925,-7.565,2.452
0.882,-1.884,-0.264,0.344,0.398,10.449,-0.054,0.077,0.938,44.121,7.5,156,-0.061,0,203,22,25,14,25,8,41,669.395,23.531,-1.001,-0.88,-7.576,2.452
0.902,-1.873,-0.253,0.398,0.461,10.445,-0.05,0.076,0.944,44.445,7.5,156,-0.054,0,203,22,25,14,25,8,41,669.395,23.487,-1.009,-0.857,-7.56,2.452
0.922,-1.862,-0.253,0.437,0.516,10.441,-0.049,0.076,0.951,44.775,7.5,156,-0.048,0,203,22,25,14,25,8,41,669.395,23.491,-1.036,-0.978,-7.562,2.453
0.942,-1.846,-0.242,0.52,0.582,10.441,-0.049,0.076,0.958,44.775,7.5,156,-0.041,0,203,22,25,14,36,8,41,669.395,23.485,-1.008,-1.022,-7.559,2.453
0.962,-1.829,-0.236,0.559,0.613,10.441,-0.049,0.078,0.974,45.099,7.375,156,-0.024,0,203,22,25,14,36,8,41,669.395,23.513,-1.013,-0.985,-7.57,2.454
0.982,-1.818,-0.231,0.586,0.633,10.445,-0.048,0.077,0.983,45.423,7.375,156,-0.015,0,203,22,25,14,36,8,41,669.395,23.484,-1.015,-0.935,-7.559,2.455
1.002,-1.802,-0.225,0.625,0.637,10.453,-0.047,0.075,0.992,45.423,7.375,156,-0.006,0,203,22,25,14,36,8,41,669.395,23.48,-1.004,-1.001,-7.557,2.455
1.022,-1.791,-0.22,0.625,0.609,10.477,-0.047,0.075,1.002,45.753,7.375,156,0.003,0,203,22,25,14,36,8,41,669.395,23.482,-0.999,-1.032,-7.558,2.453
1.042,-1.78,-0.22,0.617,0.598,10.488,-0.047,0.074,1.02,45.753,7.375,156,0.021,0,203,22,25,14,36,8,41,669.395,23.531,-0.999,-1.038,-7.576,2.455
1.062,-1.774,-0.214,0.605,0.578,10.508,-0.046,0.072,1.027,46.082,7.375,156,0.028,0,203,22,25,14,36,8,41,669.395,23.491,-0.997,-1.046,-7.561,2.454
1.082,-1.758,-0.214,0.547,0.504,10.562,-0.046,0.07,1.036,46.412,7.375,156,0.037,0,203,22,25,14,36,8,41,669.395,23.532,-0.995,-1.056,-7.576,2.454
1.102,-1.752,-0.214,0.5,0.457,10.594,-0.047,0.069,1.051,46.412,7.375,156,0.046,0,203,22,25,14,36,8,41,669.395,23.484,-0.997,-1.055,-7.559,2.454
1.122,-1.752,-0.214,0.441,0.422,10.629,-0.05,0.069,1.057,46.741,7.375,156,0.058,0,203,22,25,14,36,8,41,669.395,23.477,-0.993,-1.05,-7.557,2.454
1.142,-1.747,-0.214,0.367,0.406,10.656,-0.05,0.067,1.061,47.076,7.25,156,0.062,0,203,22,25,14,36,8,41,669.395,23.481,-0.994,-1.044,-7.558,2.454
1.162,-1.752,-0.209,0.195,0.398,10.695,-0.049,0.064,1.063,47.076,7.25,156,0.064,0,203,22,25,14,36,8,41,669.395,23.495,-0.994,-1.074,-7.563,2.454
1.182,-1.758,-0.209,0.102,0.41,10.715,-0.047,0.062,1.064,47.411,7.25,156,0.065,0,203,21,25,14,36,8,41,669.395,23.497,-0.993,-1.11,-7.564,2.454
1.202,-1.758,-0.203,0.008,0.43,10.742,-0.047,0.062,1.06,47.747,7.25,156,0.061,0,203,21,25,14,36,8,41,669.395,23.483,-0.991,-1.115,-7.559,2.453
1.222,-1.769,-0.198,-0.168,0.5,10.812,-0.046,0.061,1.055,47.747,7.25,156,0.056,0,203,21,25,14,36,8,41,669.395,23.487,-0.989,-1.118,-7.56,2.454
1.242,-1.78,-0.192,-0.254,0.52,10.852,-0.045,0.059,1.043,48.082,7.25,156,0.051,0,203,21,25,14,36,8,41,669.395,23.492,-0.985,-1.118,-7.562,2.453
1.262,-1.785,-0.187,-0.344,0.531,10.898,-0.044,0.058,1.034,48.082,7.25,156,0.035,0,203,21,25,14,36,8,41,669.395,23.483,-0.992,-1.117,-7.559,2.454
1.282,-1.796,-0.187,-0.437,0.543,10.949,-0.043,0.058,1.025,48.422,7.25,156,0.026,0,203,21,25,14,36,8,41,669.395,23.481,-0.989,-1.084,-7.557,2.453
1.302,-1.818,-0.181,-0.602,0.551,11.039,-0.042,0.059,1.016,48.768,7.25,156,0.017,0,203,21,25,14,36,8,41,669.395,23.478,-0.99,-1.056,-7.557,2.454
1.322,-1.835,-0.181,-0.672,0.531,11.086,-0.038,0.06,0.996,48.768,7.25,156,-0.003,0,203,21,25,14,36,8,41,669.395,23.479,-0.994,-1.051,-7.558,2.456
1.342,-1.846,-0.181,-0.734,0.496,11.137,-0.037,0.061,0.987,49.114,7.25,156,-0.012,0,203,21,25,14,36,8,41,669.395,23.518,-0.997,-1.051,-7.571,2.454
1.362,-1.868,-0.181,-0.805,0.434,11.215,-0.036,0.063,0.977,49.46,7.25,156,-0.022,0,203,21,25,14,36,8,41,669.395,23.487,-0.994,-0.898,-7.56,2.455
1.382,-1.879,-0.187,-0.809,0.402,11.254,-0.032,0.063,0.957,49.46,7.25,156,-0.033,0,203,20,23,14,36,8,41,669.395,23.484,-0.999,-0.914,-7.559,2.455
1.402,-1.89,-0.187,-0.809,0.363,11.293,-0.031,0.063,0.95,49.812,7.25,156,-0.049,0,203,20,23,14,36,8,41,669.395,23.499,-1,-0.839,-7.565,2.454
1.422,-1.901,-0.187,-0.793,0.328,11.328,-0.032,0.064,0.945,50.164,7.25,156,-0.055,0,203,20,23,14,36,8,41,669.395,23.497,-1,-0.835,-7.563,2.455
1.442,-1.912,-0.187,-0.695,0.305,11.395,-0.032,0.066,0.941,50.164,7.25,156,-0.059,0,203,20,23,14,36,8,41,669.395,23.482,-1.001,-0.832,-7.559,2.455
1.462,-1.912,-0.187,-0.617,0.312,11.414,-0.033,0.064,0.938,50.521,7.25,156,-0.061,0,203,20,23,14,36,8,41,669.395,23.483,-1.003,-0.831,-7.559,2.454
1.482,-1.912,-0.192,-0.512,0.312,11.437,-0.035,0.062,0.94,50.878,7.25,156,-0.059,0,203,20,23,14,36,8,41,669.395,23.504,-1.003,-0.833,-7.566,2.455
1.502,-1.901,-0.192,-0.223,0.305,11.477,-0.037,0.062,0.943,50.878,7.25,156,-0.056,0,203,20,23,14,36,8,41,669.395,23.512,-1.004,-0.823,-7.569,2.454
1.523,-1.89,-0.192,-0.055,0.293,11.508,-0.042,0.062,0.954,51.235,7.25,156,-0.051,0,203,20,23,14,36,8,41,669.395,23.51,-1,-0.825,-7.568,2.454
1.543,-1.879,-0.198,0.125,0.277,11.543,-0.043,0.059,0.963,51.592,7.25,156,-0.036,0,203,20,23,14,36,8,41,669.395,23.478,-1.002,-0.821,-7.557,2.453
1.563,-1.846,-0.203,0.301,0.246,11.594,-0.046,0.06,0.975,51.592,7.25,156.5,-0.024,0,203,20,23,14,36,8,41,669.395,23.495,-1.001,-0.82,-7.563,2.453
1.583,-1.829,-0.214,0.629,0.152,11.691,-0.048,0.062,0.989,51.96,7.25,156.5,-0.011,0,203,20,23,14,36,8,41,669.395,23.484,-0.997,-0.811,-7.559,2.453
1.603,-1.807,-0.22,0.773,0.125,11.727,-0.051,0.069,1.017,51.96,7.25,156.5,0.018,0,203,20,23,14,36,8,41,669.395,23.484,-0.996,-0.795,-7.559,2.453
1.623,-1.791,-0.225,0.895,0.105,11.75,-0.051,0.071,1.031,52.322,7.125,156.5,0.032,0,203,20,23,14,36,8,41,669.395,23.485,-0.997,-0.817,-7.56,2.453
1.643,-1.763,-0.231,1.008,0.102,11.742,-0.051,0.073,1.043,52.685,7.125,156.5,0.044,0,203,20,23,14,36,8,41,669.395,23.509,-0.994,-0.81,-7.568,2.454
1.663,-1.752,-0.231,0.984,0.133,11.73,-0.048,0.075,1.058,52.685,7.125,156.5,0.053,0,203,20,23,14,36,8,41,669.395,23.548,-0.993,-0.821,-7.581,2.453
1.683,-1.747,-0.225,0.922,0.187,11.727,-0.046,0.077,1.062,53.053,7.125,156.5,0.063,0,203,20,23,14,36,8,41,669.395,23.531,-0.988,-0.824,-7.575,2.453
1.703,-1.747,-0.225,0.812,0.258,11.723,-0.044,0.077,1.062,53.416,7.125,156.5,0.063,0,203,20,23,14,36,8,41,669.395,23.48,-0.99,-0.828,-7.558,2.453
1.723,-1.752,-0.214,0.496,0.406,11.734,-0.042,0.078,1.059,53.416,7.125,156.5,0.06,0,203,20,23,14,36,8,41,669.395,23.482,-0.989,-0.83,-7.559,2.452
1.743,-1.758,-0.203,0.297,0.488,11.75,-0.04,0.078,1.047,53.784,7.125,156.5,0.048,0,203,20,23,14,36,8,41,669.395,23.481,-0.989,-0.832,-7.558,2.452
1.763,-1.769,-0.198,0.07,0.578,11.77,-0.038,0.08,1.039,54.152,7.125,156.5,0.04,0,203,20,23,14,36,8,41,669.395,23.527,-0.99,-0.834,-7.574,2.453
1.783,-1.802,-0.176,-0.387,0.676,11.789,-0.037,0.081,1.032,54.152,7.125,156.5,0.033,0,203,20,23,14,36,8,41,669.395,23.484,-1.004,-0.834,-7.559,2.453
1.803,-1.818,-0.165,-0.602,0.852,11.797,-0.036,0.082,1.025,54.52,7.125,156.5,0.026,0,203,21,0,14,36,8,41,669.395,23.487,-0.99,-0.834,-7.56,2.454
1.823,-1.84,-0.154,-0.797,0.914,11.793,-0.034,0.086,1.01,54.52,7.125,156.5,0.011,0,203,21,0,14,36,8,41,669.395,23.499,-0.989,-0.83,-7.564,2.453
1.843,-1.857,-0.148,-0.965,0.957,11.789,-0.034,0.087,1.004,54.888,7.125,156.5,0.005,0,203,21,0,14,36,8,41,669.395,23.485,-0.995,-0.819,-7.56,2.454
1.863,-1.895,-0.132,-1.199,0.977,11.781,-0.035,0.087,0.999,55.256,7,156.5,0,0,203,21,0,14,36,8,41,669.395,23.482,-0.992,-0.823,-7.559,2.454
1.883,-1.912,-0.126,-1.262,0.949,11.793,-0.038,0.087,0.99,55.256,7,156.5,-0.01,0,203,21,0,14,36,8,41,669.395,23.482,-1.042,-0.834,-7.558,2.453
1.903,-1.934,-0.121,-1.297,0.906,11.805,-0.04,0.088,0.987,55.624,7,156.5,-0.012,0,203,21,0,14,36,8,41,669.395,23.492,-1.027,-0.836,-7.561,2.453
1.923,-1.961,-0.115,-1.254,0.855,11.816,-0.042,0.088,0.985,55.997,7,156.5,-0.014,0,203,21,0,14,36,8,41,669.395,23.564,-1.026,-0.834,-7.587,2.453
1.943,-1.972,-0.115,-1.18,0.734,11.824,-0.043,0.089,0.982,55.997,7,156.5,-0.016,0,203,21,0,14,46,8,41,669.395,23.495,-1.035,-0.839,-7.564,2.454
1.963,-1.978,-0.115,-1.082,0.66,11.82,-0.042,0.088,0.982,56.365,7,156.5,-0.017,0,203,21,0,14,46,7,41,669.395,23.485,-1.022,-0.834,-7.56,2.455
1.983,-1.983,-0.115,-0.957,0.582,11.812,-0.043,0.087,0.982,56.733,7,156.5,-0.017,0,203,21,0,14,46,7,41,669.395,23.497,-1.001,-0.841,-7.564,2.454
2.003,-1.994,-0.121,-0.691,0.437,11.789,-0.043,0.087,0.982,56.733,7,156.5,-0.017,0,203,21,0,14,46,7,41,669.395,23.485,-1.004,-0.84,-7.56,2.453
2.023,-1.994,-0.126,-0.559,0.383,11.785,-0.043,0.084,0.983,57.101,7,156.5,-0.016,0,203,21,0,14,46,7,41,669.395,23.487,-1.003,-0.832,-7.56,2.455
2.043,-1.994,-0.126,-0.426,0.34,11.785,-0.043,0.082,0.983,57.475,7,156.5,-0.016,0,203,21,0,14,46,7,41,669.395,23.488,-1.003,-0.831,-7.561,2.454
2.063,-1.989,-0.126,-0.18,0.312,11.781,-0.042,0.081,0.984,57.475,7,156.5,-0.016,0,203,21,0,14,46,7,41,669.395,23.491,-1.003,-0.834,-7.561,2.453
2.083,-1.989,-0.121,-0.078,0.309,11.762,-0.042,0.081,0.984,57.843,7,156.5,-0.015,0,203,21,23,14,46,7,41,669.395,23.523,-1.004,-0.821,-7.573,2.455
2.103,-1.983,-0.121,0.004,0.348,11.742,-0.042,0.079,0.981,57.843,7,156.5,-0.018,0,203,21,23,14,46,7,41,669.395,23.502,-1,-0.811,-7.565,2.454
2.123,-1.983,-0.115,0.066,0.41,11.719,-0.042,0.078,0.979,58.206,7,156.5,-0.02,0,203,21,23,14,46,7,41,669.395,23.484,-0.999,-0.813,-7.559,2.453
2.143,-1.978,-0.104,0.117,0.547,11.68,-0.042,0.078,0.977,58.574,7,156.5,-0.022,0,203,21,23,14,46,7,41,669.395,23.507,-0.997,-0.817,-7.567,2.454
2.163,-1.978,-0.093,0.121,0.613,11.664,-0.044,0.078,0.974,58.574,7,156.5,-0.025,0,203,21,23,14,46,7,41,669.395,23.477,-0.994,-0.826,-7.557,2.452
2.183,-1.978,-0.093,0.113,0.672,11.652,-0.045,0.078,0.974,58.936,7,156.5,-0.025,0,203,21,23,14,46,7,41,669.395,23.481,-0.992,-0.805,-7.558,2.452
2.203,-1.978,-0.082,0.098,0.711,11.645,-0.046,0.077,0.976,59.304,7,156.5,-0.023,0,203,22,23,14,46,7,41,669.395,23.483,-0.991,-0.808,-7.559,2.452
2.224,-1.983,-0.077,0.035,0.742,11.652,-0.047,0.077,0.979,59.304,7,156.5,-0.019,0,203,22,23,14,46,7,41,669.395,23.483,-0.993,-0.807,-7.559,2.45
2.244,-1.989,-0.071,-0.012,0.734,11.648,-0.048,0.077,0.992,59.667,6.875,156.5,-0.007,0,203,22,23,14,46,7,41,669.395,23.528,-0.992,-0.807,-7.574,2.451
2.264,-1.989,-0.071,-0.07,0.723,11.641,-0.049,0.076,0.997,60.029,6.875,156.5,-0.002,0,203,22,23,14,46,7,41,669.395,23.503,-0.992,-0.794,-7.566,2.452
2.284,-2.005,-0.066,-0.187,0.672,11.621,-0.049,0.074,1.003,60.029,6.875,156.5,0.004,0,203,22,23,14,46,7,41,669.395,23.487,-0.996,-0.793,-7.56,2.451
2.304,-2.01,-0.066,-0.254,0.625,11.617,-0.051,0.074,1.015,60.397,6.875,156.5,0.011,0,203,22,23,14,46,7,41,669.395,23.496,-0.992,-0.793,-7.563,2.451
2.324,-2.016,-0.066,-0.309,0.586,11.617,-0.052,0.074,1.02,60.76,6.875,156.5,0.021,0,203,22,23,14,46,7,41,669.395,23.483,-0.989,-0.697,-7.559,2.45
2.344,-2.032,-0.071,-0.359,0.547,11.621,-0.053,0.074,1.025,60.76,6.875,156.5,0.026,0,203,22,23,14,46,7,41,669.395,23.479,-0.99,-0.707,-7.558,2.449
2.364,-2.038,-0.071,-0.453,0.457,11.625,-0.053,0.072,1.028,61.122,6.875,156.5,0.029,0,203,22,23,14,46,7,41,669.395,23.482,-1.003,-0.669,-7.558,2.449
2.384,-2.049,-0.071,-0.484,0.43,11.625,-0.054,0.071,1.031,61.122,6.875,156.5,0.032,0,203,22,23,14,46,7,41,669.395,23.486,-0.988,-0.639,-7.56,2.449
2.404,-2.054,-0.071,-0.508,0.418,11.625,-0.054,0.072,1.031,61.485,6.875,156.5,0.032,0,203,22,23,14,46,7,41,669.395,23.557,-0.995,-0.631,-7.585,2.449
2.424,-2.065,-0.06,-0.512,0.445,11.609,-0.054,0.073,1.028,61.848,6.75,156.5,0.03,0,203,22,23,14,46,7,41,669.395,23.518,-0.993,-0.542,-7.571,2.448
2.444,-2.071,-0.055,-0.496,0.477,11.598,-0.054,0.072,1.019,61.848,6.75,156.5,0.026,0,203,22,23,14,46,7,41,669.395,23.483,-0.999,-0.498,-7.558,2.449
2.464,-2.076,-0.049,-0.465,0.52,11.594,-0.054,0.073,1.013,62.21,6.75,156.5,0.014,0,203,22,23,14,46,7,41,669.395,23.575,-1.002,-0.49,-7.591,2.45
2.484,-2.082,-0.044,-0.422,0.574,11.578,-0.054,0.074,1.006,62.573,6.75,156.5,0.008,0,203,22,23,14,46,7,41,669.395,23.484,-1.002,-0.478,-7.559,2.451
2.504,-2.087,-0.038,-0.336,0.664,11.543,-0.054,0.076,1,62.573,6.75,156.5,0.001,0,203,22,0,14,46,7,41,669.395,23.485,-1.003,-0.487,-7.559,2.451
2.524,-2.087,-0.033,-0.301,0.687,11.531,-0.054,0.078,0.989,62.935,6.75,156.5,-0.009,0,203,22,0,14,46,7,41,669.395,23.484,-1.003,-0.487,-7.559,2.451
2.544,-2.093,-0.027,-0.273,0.699,11.527,-0.055,0.079,0.986,63.298,6.75,156.5,-0.013,0,203,22,0,14,46,7,41,669.395,23.482,-1.001,-0.487,-7.558,2.453
2.564,-2.098,-0.022,-0.223,0.691,11.512,-0.055,0.08,0.983,63.298,6.75,156.5,-0.016,0,203,22,0,14,46,7,41,669.395,23.548,-1.001,-0.453,-7.582,2.451
2.584,-2.098,-0.022,-0.203,0.668,11.496,-0.055,0.08,0.978,63.655,6.75,156.5,-0.018,0,203,22,0,14,46,7,41,669.395,23.489,-1,-0.42,-7.561,2.453
2.604,-2.104,-0.022,-0.203,0.629,11.484,-0.055,0.078,0.976,64.017,6.75,156.5,-0.022,0,203,21,0,14,46,7,41,669.395,23.789,-0.998,-0.277,-7.665,2.451
2.624,-2.115,-0.022,-0.211,0.578,11.477,-0.055,0.077,0.975,64.017,6.75,156.5,-0.024,0,203,21,0,14,46,7,41,669.395,23.603,-0.999,-0.255,-7.6,2.452
2.644,-2.12,-0.027,-0.25,0.445,11.469,-0.053,0.076,0.975,64.374,6.75,156.5,-0.023,0,203,21,0,14,46,7,41,669.395,23.53,-0.998,-0.25,-7.575,2.452
2.664,-2.126,-0.038,-0.285,0.371,11.465,-0.053,0.074,0.977,64.731,6.75,156.5,-0.022,0,203,21,0,14,46,7,41,669.395,23.518,-0.997,-0.212,-7.571,2.453
2.684,-2.142,-0.049,-0.355,0.223,11.465,-0.053,0.072,0.98,64.731,6.75,156.5,-0.019,0,203,21,0,14,46,7,41,669.395,23.567,-0.996,-0.232,-7.588,2.453
2.704,-2.148,-0.055,-0.395,0.16,11.461,-0.052,0.072,0.987,65.094,6.625,156.5,-0.015,0,203,21,0,14,46,7,41,669.395,23.752,-0.995,-0.211,-7.653,2.453
2.724,-2.159,-0.055,-0.437,0.113,11.453,-0.053,0.07,0.991,65.451,6.625,156.5,-0.007,0,203,21,0,14,46,7,41,669.395,23.554,-0.994,-0.176,-7.584,2.452
2.744,-2.175,-0.066,-0.484,0.09,11.441,-0.054,0.069,0.996,65.451,6.625,156.5,-0.002,0,203,21,0,14,46,7,41,669.395,23.491,-0.993,-0.178,-7.562,2.453
2.764,-2.192,-0.066,-0.594,0.105,11.414,-0.055,0.068,1.003,65.808,6.625,156.5,0.005,0,203,21,0,14,46,7,41,669.395,23.506,-0.992,-0.18,-7.567,2.453
2.784,-2.203,-0.066,-0.645,0.145,11.398,-0.058,0.067,1.016,65.808,6.625,156.5,0.017,0,203,21,0,14,46,7,41,669.395,23.503,-0.991,-0.178,-7.566,2.452
2.804,-2.214,-0.066,-0.691,0.207,11.387,-0.058,0.068,1.022,66.165,6.625,157,0.023,0,203,21,23,14,46,7,41,669.395,23.483,-0.989,-0.255,-7.559,2.453
2.824,-2.241,-0.055,-0.766,0.387,11.363,-0.059,0.068,1.027,66.522,6.625,157,0.028,0,203,21,23,14,46,7,41,669.395,23.482,-0.989,-0.265,-7.558,2.453
2.844,-2.252,-0.049,-0.801,0.488,11.355,-0.061,0.07,1.035,66.522,6.625,157,0.037,0,202,21,23,14,46,7,41,669.395,23.502,-0.991,-0.286,-7.565,2.453
2.864,-2.269,-0.038,-0.828,0.586,11.344,-0.062,0.072,1.037,66.874,6.5,157,0.038,0,202,21,23,14,46,7,41,669.395,23.563,-0.99,-0.295,-7.587,2.454
2.884,-2.291,-0.016,-0.867,0.789,11.336,-0.063,0.074,1.036,67.231,6.5,157,0.038,0,202,21,23,14,46,7,41,669.395,23.571,-0.992,-0.294,-7.59,2.453
2.904,-2.302,-0.011,-0.863,0.863,11.328,-0.064,0.075,1.033,67.231,6.5,157,0.037,0,202,21,23,14,46,7,41,669.395,23.493,-0.994,-0.293,-7.562,2.454
2.925,-2.318,-0.011,-0.848,0.898,11.328,-0.067,0.076,1.027,67.588,6.5,157,0.029,0,202,21,23,14,46,7,41,669.395,23.494,-0.994,-0.294,-7.563,2.452
2.945,-2.329,-0.005,-0.824,0.895,11.332,-0.067,0.077,1.02,67.939,6.5,157,0.022,0,202,21,23,14,58,7,41,669.395,23.551,-0.996,-0.297,-7.583,2.453
2.965,-2.346,0,-0.777,0.82,11.348,-0.066,0.078,1.013,67.939,6.5,157,0.014,0,202,21,23,14,58,7,41,669.395,23.506,-0.998,-0.295,-7.567,2.453
2.985,-2.357,-0.005,-0.758,0.746,11.359,-0.067,0.076,0.997,68.297,6.5,157,-0.001,0,202,21,23,14,58,7,41,669.395,23.513,-0.996,-0.298,-7.57,2.452
3.005,-2.368,-0.005,-0.734,0.66,11.375,-0.067,0.075,0.991,68.654,6.5,157,-0.008,0,202,21,23,14,58,7,41,669.395,23.516,-0.999,-0.301,-7.571,2.453
3.025,-2.39,-0.016,-0.695,0.574,11.395,-0.067,0.074,0.984,68.654,6.5,157,-0.015,0,202,21,23,14,58,7,41,669.395,23.598,-1,-0.299,-7.599,2.452
3.045,-2.395,-0.016,-0.676,0.441,11.43,-0.067,0.072,0.977,69.011,6.5,157,-0.021,0,202,21,23,14,58,7,41,669.395,23.535,-1.002,-0.305,-7.577,2.453
3.065,-2.406,-0.016,-0.656,0.402,11.445,-0.068,0.069,0.967,69.011,6.5,157,-0.031,0,202,21,23,14,58,7,41,669.395,23.485,-1.002,-0.299,-7.56,2.454
3.085,-2.417,-0.016,-0.645,0.383,11.461,-0.068,0.067,0.963,69.368,6.375,157,-0.035,0,202,21,23,14,58,7,41,669.395,23.538,-1.004,-0.299,-7.578,2.453
3.105,-2.433,-0.011,-0.621,0.414,11.508,-0.069,0.065,0.96,69.725,6.375,157,-0.038,0,202,21,23,14,58,7,41,669.395,23.548,-1.003,-0.303,-7.582,2.453
3.125,-2.444,-0.005,-0.621,0.469,11.539,-0.07,0.066,0.957,69.725,6.375,157,-0.041,0,202,21,23,14,58,7,41,669.395,23.513,-1.003,-0.305,-7.569,2.453
3.145,-2.455,0,-0.617,0.543,11.57,-0.071,0.064,0.958,70.087,6.375,157,-0.04,0,202,21,23,14,58,7,41,669.395,23.511,-1.003,-0.303,-7.569,2.453
3.165,-2.472,0.022,-0.59,0.633,11.605,-0.071,0.064,0.96,70.45,6.375,157,-0.038,0,202,21,23,14,58,7,41,669.395,23.517,-1,-0.3,-7.571,2.454
3.185,-2.477,0.033,-0.562,0.84,11.668,-0.072,0.063,0.963,70.45,6.375,157,-0.036,0,202,21,23,14,58,7,41,669.395,23.525,-0.996,-0.301,-7.574,2.454
3.205,-2.483,0.038,-0.527,0.937,11.695,-0.072,0.061,0.967,70.812,6.375,157,-0.031,0,202,20,23,14,58,7,41,669.395,23.512,-0.999,-0.299,-7.569,2.452
3.225,-2.488,0.049,-0.492,1.023,11.727,-0.072,0.059,0.97,71.18,6.25,157,-0.027,0,202,20,23,14,58,7,41,669.395,23.491,-0.996,-0.297,-7.561,2.454
3.245,-2.494,0.071,-0.398,1.113,11.801,-0.073,0.058,0.973,71.18,6.25,157,-0.024,0,202,20,23,14,58,7,41,669.395,23.484,-0.992,-0.259,-7.559,2.453
3.265,-2.494,0.071,-0.34,1.105,11.84,-0.072,0.056,0.977,71.548,6.25,157,-0.021,0,202,20,23,14,58,7,41,669.395,23.53,-0.991,-0.241,-7.575,2.453
3.285,-2.494,0.077,-0.266,1.059,11.891,-0.072,0.054,0.978,71.922,6.25,157,-0.02,0,202,20,23,14,58,7,41,669.395,23.516,-0.994,-0.199,-7.57,2.455
3.305,-2.488,0.066,-0.18,0.973,11.945,-0.072,0.053,0.978,71.922,6.25,157,-0.02,0,202,20,23,14,58,7,41,669.395,23.505,-0.99,-0.182,-7.566,2.454
3.325,-2.483,0.06,0.004,0.711,12.051,-0.073,0.052,0.979,72.296,6.25,157,-0.019,0,202,20,23,14,58,7,41,669.395,23.612,-0.99,-0.176,-7.604,2.455
3.345,-2.477,0.049,0.09,0.559,12.098,-0.075,0.053,0.983,72.296,6.25,157,-0.015,0,202,20,23,14,58,7,41,669.395,23.522,-0.991,-0.179,-7.573,2.456
3.365,-2.472,0.044,0.164,0.406,12.145,-0.075,0.052,0.986,72.669,6.25,157,-0.012,0,202,20,23,14,58,7,41,669.395,23.488,-0.989,-0.18,-7.561,2.457
3.385,-2.466,0.022,0.27,0.152,12.223,-0.075,0.052,0.992,73.054,6.25,157,-0.006,0,202,20,23,14,58,7,41,669.395,23.497,-0.987,-0.181,-7.564,2.458
3.405,-2.461,0.022,0.301,0.078,12.262,-0.078,0.05,1.005,73.054,6.25,157,0.007,0,202,20,23,14,58,7,41,669.395,23.487,-0.984,-0.188,-7.56,2.459
3.425,-2.455,0.016,0.305,0.051,12.293,-0.078,0.049,1.01,73.433,6.125,157,0.013,0,202,20,23,14,58,7,41,669.395,23.489,-0.973,-0.216,-7.56,2.459
3.445,-2.455,0.016,0.25,0.141,12.324,-0.077,0.048,1.015,73.817,6.125,157,0.018,0,202,20,23,14,58,7,41,669.395,23.48,-0.988,-0.28,-7.558,2.458
3.465,-2.461,0.022,0.195,0.242,12.375,-0.077,0.046,1.02,73.817,6.125,157,0.021,0,202,20,23,14,58,7,41,669.395,23.482,-0.994,-0.285,-7.558,2.459
3.485,-2.461,0.027,0.133,0.355,12.41,-0.075,0.046,1.021,74.207,6.125,157,0.023,0,202,20,23,14,58,7,41,669.395,23.486,-0.994,-0.295,-7.56,2.457
3.505,-2.466,0.033,0.062,0.473,12.445,-0.073,0.046,1.021,74.592,6.125,157,0.023,0,202,20,23,14,58,7,41,669.395,23.5,-0.999,-0.295,-7.565,2.458
3.525,-2.477,0.038,-0.121,0.652,12.527,-0.073,0.047,1.02,74.592,6.125,157,0.022,0,202,20,23,14,58,7,41,669.395,23.484,-0.999,-0.296,-7.559,2.458
3.545,-2.483,0.038,-0.211,0.707,12.566,-0.074,0.051,1.018,74.982,6.125,157,0.02,0,202,20,23,14,58,7,41,669.395,23.531,-1.001,-0.299,-7.576,2.457
3.565,-2.494,0.038,-0.301,0.723,12.605,-0.075,0.053,1.018,75.377,6.125,157,0.02,0,202,20,23,14,58,7,41,669.395,23.604,-0.999,-0.303,-7.601,2.456
3.585,-2.516,0.033,-0.473,0.66,12.641,-0.075,0.055,1.018,75.377,6,157,0.021,0,202,20,23,14,58,7,41,669.395,23.515,-1.004,-0.304,-7.569,2.457
3.606,-2.527,0.027,-0.551,0.594,12.691,-0.077,0.057,1.018,75.767,6,157,0.021,0,202,22,23,14,58,7,41,669.395,23.491,-1.003,-0.304,-7.562,2.456
3.626,-2.538,0.022,-0.609,0.52,12.715,-0.078,0.06,1.016,75.767,6,157,0.019,0,202,22,23,14,58,7,41,669.395,23.495,-1,-0.307,-7.563,2.456
3.646,-2.538,0.022,-0.609,0.52,12.715,-0.078,0.06,1.016,75.767,6,157,0.019,0,202,22,23,14,58,7,41,669.395,23.554,-1,-0.301,-7.583,2.455
3.666,-2.56,0.022,-0.652,0.441,12.738,-0.078,0.061,1.014,76.168,6,157,0.016,0,202,22,23,14,58,7,41,669.395,23.516,-1.001,-0.304,-7.57,2.455
3.686,-2.565,0.011,-0.676,0.324,12.773,-0.077,0.061,1.011,76.564,6,157,0.013,0,202,22,23,14,58,7,41,669.395,23.485,-1,-0.304,-7.56,2.456
3.706,-2.576,0.005,-0.652,0.285,12.785,-0.075,0.062,1.003,76.564,6,157,0.005,0,202,22,23,14,58,7,41,669.395,23.504,-0.998,-0.302,-7.567,2.455
3.726,-2.582,-0.005,-0.617,0.266,12.797,-0.074,0.062,0.996,76.965,6,157,-0.002,0,202,22,23,14,58,7,41,669.395,23.485,-0.996,-0.304,-7.559,2.455
3.746,-2.587,-0.005,-0.496,0.281,12.82,-0.072,0.062,0.989,77.36,5.875,157,-0.009,0,202,22,23,14,58,7,41,669.395,23.489,-0.995,-0.3,-7.561,2.455
3.766,-2.587,-0.011,-0.422,0.316,12.832,-0.071,0.064,0.975,77.761,5.875,157,-0.023,0,202,22,23,14,58,7,41,669.395,23.5,-0.993,-0.303,-7.565,2.456
3.796,-2.587,-0.005,-0.258,0.359,12.84,-0.07,0.064,0.969,77.761,5.875,157,-0.029,0,202,22,23,14,58,7,41,669.395,23.489,-0.993,-0.3,-7.561,2.455
3.816,-2.587,0,-0.18,0.461,12.844,-0.069,0.065,0.961,78.162,5.875,157,-0.034,0,202,22,23,14,58,7,41,669.395,23.567,-0.99,-0.299,-7.589,2.453
3.836,-2.587,0,-0.109,0.523,12.836,-0.068,0.068,0.959,78.563,5.875,157,-0.039,0,202,22,25,14,58,7,41,669.395,23.491,-0.988,-0.295,-7.561,2.455
3.856,-2.587,0.005,-0.008,0.652,12.816,-0.068,0.068,0.959,78.563,5.875,157,-0.039,0,202,22,25,14,58,7,41,669.395,23.531,-0.981,-0.288,-7.576,2.454
3.876,-2.587,0.011,0.012,0.707,12.812,-0.068,0.071,0.963,78.964,5.875,157,-0.035,0,202,22,25,14,58,7,41,669.395,23.648,-0.989,-0.286,-7.616,2.453
3.896,-2.587,0.016,0.02,0.75,12.809,-0.069,0.071,0.968,79.365,5.875,157,-0.03,0,202,22,25,14,58,7,41,669.395,23.717,-0.989,-0.277,-7.641,2.454
3.916,-2.593,0.022,-0.004,0.785,12.805,-0.07,0.073,0.974,79.365,5.75,157,-0.024,0,202,22,25,14,58,7,41,669.395,23.627,-0.986,-0.277,-7.609,2.453
3.936,-2.593,0.022,-0.039,0.789,12.805,-0.071,0.075,0.985,79.766,5.75,157,-0.019,0,202,22,25,14,58,7,41,669.395,23.638,-0.988,-0.236,-7.613,2.453
3.956,-2.598,0.022,-0.074,0.785,12.793,-0.071,0.075,0.992,79.766,5.75,157,-0.005,0,202,22,25,14,69,7,41,669.395,23.634,-0.987,-0.23,-7.612,2.454
3.976,-2.604,0.027,-0.109,0.766,12.773,-0.071,0.076,0.998,80.167,5.75,157,0.001,0,202,22,25,14,69,6,41,669.395,23.614,-0.988,-0.224,-7.605,2.453
3.996,-2.604,0.027,-0.168,0.711,12.754,-0.072,0.076,1.003,80.568,5.75,157,0.006,0,202,22,25,14,69,6,41,669.395,23.49,-0.994,-0.227,-7.561,2.453
4.016,-2.604,0.027,-0.168,0.684,12.746,-0.074,0.078,1.012,80.568,5.75,157,0.014,0,202,22,25,14,69,6,41,669.395,23.486,-0.992,-0.215,-7.56,2.453
4.036,-2.604,0.027,-0.152,0.66,12.738,-0.076,0.078,1.013,80.964,5.75,157,0.015,0,202,22,25,14,69,6,41,669.395,23.5,-0.997,-0.221,-7.565,2.454
4.056,-2.598,0.027,-0.055,0.617,12.715,-0.076,0.078,1.012,81.365,5.625,157,0.014,0,202,22,25,14,69,6,41,669.395,23.484,-0.995,-0.23,-7.559,2.453
4.076,-2.593,0.027,0.016,0.613,12.695,-0.076,0.079,1.006,81.365,5.625,157,0.012,0,202,22,25,14,69,6,41,669.395,23.492,-0.999,-0.219,-7.562,2.455
4.096,-2.587,0.033,0.102,0.617,12.676,-0.073,0.076,1.001,81.76,5.625,157,0.003,0,202,22,25,14,69,6,41,669.395,23.483,-1,-0.222,-7.559,2.454
4.116,-2.576,0.033,0.195,0.629,12.656,-0.072,0.076,0.996,82.156,5.625,157,-0.001,0,202,22,25,14,69,6,41,669.092,23.481,-1,-0.228,-7.558,2.454
4.136,-2.56,0.038,0.379,0.641,12.637,-0.07,0.075,0.992,82.156,5.625,157,-0.006,0,202,22,25,14,69,6,41,669.092,23.485,-1.002,-0.232,-7.56,2.453
4.156,-2.549,0.038,0.461,0.656,12.637,-0.068,0.073,0.987,82.551,5.625,157,-0.011,0,202,22,25,14,69,6,41,669.092,23.492,-1.004,-0.233,-7.562,2.454
4.176,-2.538,0.044,0.523,0.684,12.637,-0.068,0.073,0.988,82.947,5.625,157,-0.01,0,202,22,25,14,69,6,41,669.092,23.543,-1.004,-0.219,-7.58,2.454
4.196,-2.527,0.055,0.555,0.746,12.633,-0.069,0.071,0.99,82.947,5.625,157,-0.008,0,202,22,25,14,69,6,41,669.092,23.577,-1,-0.221,-7.592,2.455
4.216,-2.521,0.06,0.527,0.777,12.641,-0.068,0.068,0.994,83.342,5.5,157,-0.006,0,202,22,25,14,69,6,41,669.092,23.711,-0.999,-0.229,-7.638,2.453
4.236,-2.521,0.066,0.465,0.805,12.648,-0.065,0.065,0.997,83.342,5.5,157,-0.001,0,202,22,25,14,69,6,41,669.092,23.642,-1,-0.208,-7.614,2.453
4.256,-2.521,0.071,0.387,0.828,12.664,-0.064,0.063,0.999,83.743,5.5,157,0.001,0,202,22,25,14,69,6,41,669.092,23.492,-0.998,-0.203,-7.563,2.452
4.276,-2.527,0.077,0.203,0.848,12.711,-0.063,0.061,1.002,84.139,5.5,157,0.003,0,202,22,25,14,69,6,41,669.092,23.525,-0.998,-0.205,-7.573,2.452
4.296,-2.532,0.077,0.109,0.836,12.742,-0.06,0.057,1.003,84.139,5.5,157,0.005,0,202,22,25,14,69,6,41,669.092,23.486,-0.998,-0.202,-7.56,2.452
4.317,-2.538,0.077,0.008,0.805,12.777,-0.059,0.055,1.004,84.534,5.5,157,0.006,0,202,22,25,14,69,6,41,669.092,23.496,-0.992,-0.204,-7.563,2.454
4.337,-2.549,0.077,-0.094,0.766,12.816,-0.059,0.054,1.006,84.935,5.5,157,0.007,0,202,22,25,14,69,6,41,669.092,23.582,-0.989,-0.202,-7.594,2.455
4.357,-2.554,0.071,-0.266,0.656,12.891,-0.059,0.053,1.007,84.935,5.5,157,0.008,0,202,22,25,14,69,6,41,669.092,23.569,-0.99,-0.214,-7.589,2.454
4.377,-2.56,0.071,-0.316,0.594,12.934,-0.056,0.05,1.004,85.342,5.5,157,0.005,0,202,22,25,14,69,6,41,669.092,23.493,-0.988,-0.247,-7.562,2.455
4.397,-2.565,0.066,-0.34,0.539,12.98,-0.054,0.049,1.001,85.748,5.5,157,0.002,0,202,22,25,14,69,6,41,669.092,23.502,-0.988,-0.249,-7.566,2.455
4.417,-2.565,0.066,-0.289,0.457,13.066,-0.053,0.048,0.998,85.748,5.5,157,-0.001,0,202,22,25,14,69,6,41,669.092,23.837,-0.987,-0.248,-7.683,2.454
4.437,-2.56,0.06,-0.219,0.434,13.109,-0.051,0.046,0.99,86.155,5.5,157,-0.005,0,202,22,25,14,69,6,41,669.092,23.525,-0.986,-0.251,-7.573,2.456
4.457,-2.554,0.06,-0.129,0.41,13.152,-0.05,0.044,0.983,86.567,5.5,157,-0.016,0,202,22,25,14,69,6,41,669.092,23.481,-0.987,-0.253,-7.557,2.455
4.477,-2.538,0.055,-0.023,0.395,13.191,-0.049,0.043,0.975,86.567,5.5,157,-0.024,0,202,22,25,14,69,6,41,669.092,23.523,-0.99,-0.252,-7.573,2.456
4.497,-2.527,0.049,0.25,0.391,13.273,-0.048,0.042,0.968,86.979,5.5,157,-0.031,0,202,22,25,14,69,6,41,669.092,23.542,-0.989,-0.252,-7.58,2.455
4.517,-2.51,0.044,0.406,0.383,13.316,-0.045,0.039,0.95,86.979,5.5,157,-0.049,0,202,22,25,14,69,6,41,669.092,23.489,-0.989,-0.258,-7.561,2.455
4.537,-2.488,0.038,0.574,0.367,13.371,-0.042,0.039,0.942,87.396,5.5,157,-0.057,0,202,22,25,14,69,6,41,669.092,23.483,-0.989,-0.258,-7.558,2.455
4.557,-2.45,0.022,0.906,0.297,13.5,-0.04,0.039,0.935,87.814,5.5,157,-0.065,0,202,22,25,14,69,6,41,669.092,23.509,-0.993,-0.237,-7.568,2.456
4.577,-2.428,0.016,1.047,0.254,13.562,-0.038,0.04,0.932,87.814,5.5,157,-0.068,0,202,22,25,14,69,6,41,669.092,23.527,-0.994,-0.18,-7.574,2.457
4.597,-2.406,0.011,1.164,0.203,13.625,-0.038,0.041,0.936,88.237,5.375,157,-0.063,0,202,22,25,14,69,6,41,669.092,23.507,-0.989,-0.147,-7.567,2.457
4.617,-2.368,0,1.25,0.148,13.684,-0.039,0.041,0.943,88.665,5.375,157,-0.057,0,202,22,25,14,69,6,41,669.092,23.488,-0.992,-0.164,-7.56,2.456
4.637,-2.351,-0.016,1.336,0.082,13.781,-0.04,0.042,0.953,88.665,5.375,157,-0.046,0,202,22,25,14,69,6,41,669.092,23.508,-0.997,-0.174,-7.568,2.457
4.657,-2.329,-0.022,1.332,0.082,13.82,-0.044,0.044,0.98,89.094,5.375,157,-0.019,0,202,22,25,14,69,6,41,669.092,23.554,-0.999,-0.222,-7.583,2.457
4.677,-2.313,-0.022,1.297,0.113,13.863,-0.047,0.043,0.995,89.522,5.375,157,-0.004,0,202,22,25,14,69,6,41,669.092,23.486,-0.999,-0.27,-7.559,2.456
4.697,-2.291,-0.027,1.141,0.23,13.961,-0.048,0.043,1.011,89.522,5.375,157,0.013,0,202,22,25,14,69,6,41,669.092,23.484,-1.002,-0.3,-7.559,2.457
4.717,-2.285,-0.022,1.02,0.312,14.016,-0.049,0.044,1.042,89.962,5.375,157,0.029,0,202,22,25,14,69,6,41,669.092,23.486,-0.997,-0.304,-7.56,2.457
4.737,-2.28,-0.022,0.879,0.41,14.074,-0.049,0.047,1.057,90.401,5.375,157,0.058,0,202,22,25,14,69,6,41,669.092,23.512,-0.999,-0.309,-7.569,2.458
4.757,-2.274,-0.016,0.734,0.5,14.121,-0.05,0.049,1.07,90.401,5.375,157,0.071,0,202,22,25,14,69,6,41,669.092,23.531,-0.995,-0.307,-7.575,2.458
4.777,-2.274,-0.011,0.434,0.625,14.195,-0.05,0.05,1.081,90.84,5.375,157,0.082,0,202,22,25,14,69,6,41,669.092,23.609,-0.994,-0.306,-7.603,2.458
4.797,-2.28,-0.011,0.289,0.656,14.227,-0.049,0.054,1.095,90.84,5.375,157,0.096,0,202,22,25,14,69,6,41,669.092,23.532,-0.992,-0.303,-7.576,2.458
4.817,-2.285,-0.011,0.133,0.672,14.258,-0.049,0.055,1.098,91.285,5.375,157,0.099,0,202,22,25,14,69,6,41,669.092,23.501,-0.994,-0.305,-7.565,2.458
4.837,-2.302,-0.016,-0.164,0.645,14.332,-0.047,0.054,1.097,91.73,5.375,157,0.098,0,202,21,25,14,69,6,41,669.092,23.546,-0.99,-0.31,-7.58,2.459
4.857,-2.313,-0.016,-0.309,0.605,14.383,-0.046,0.054,1.088,91.73,5.375,157,0.095,0,202,21,25,14,69,6,41,669.092,23.484,-0.987,-0.313,-7.559,2.459
4.877,-2.324,-0.022,-0.445,0.57,14.441,-0.045,0.058,1.081,92.175,5.375,157,0.082,0,202,21,25,14,69,6,41,669.092,23.478,-0.989,-0.309,-7.557,2.459
4.897,-2.34,-0.022,-0.562,0.543,14.496,-0.043,0.061,1.073,92.631,5.375,157,0.073,0,202,21,25,14,69,6,41,669.092,23.48,-0.985,-0.31,-7.558,2.458
4.917,-2.368,-0.022,-0.754,0.508,14.562,-0.042,0.063,1.063,92.631,5.375,157,0.064,0,202,21,25,14,69,6,41,669.092,23.623,-0.986,-0.311,-7.608,2.458
4.937,-2.379,-0.022,-0.828,0.508,14.59,-0.042,0.065,1.038,93.082,5.25,157,0.039,0,202,21,25,14,69,6,41,669.092,23.57,-0.987,-0.309,-7.59,2.459
4.957,-2.395,-0.022,-0.887,0.523,14.602,-0.042,0.068,1.023,93.538,5.25,157,0.023,0,202,21,25,14,81,6,41,669.092,23.485,-0.983,-0.311,-7.559,2.458
4.977,-2.422,-0.016,-0.941,0.555,14.605,-0.041,0.068,1.007,93.538,5.25,157,0.008,0,202,21,25,14,81,6,41,669.092,23.502,-0.988,-0.307,-7.565,2.458
4.998,-2.439,-0.011,-0.949,0.664,14.629,-0.042,0.067,0.992,93.994,5.25,157,-0.007,0,202,21,25,14,81,6,41,669.092,23.594,-0.989,-0.309,-7.598,2.459
5.018,-2.45,0,-0.937,0.738,14.648,-0.042,0.069,0.963,93.994,5.25,157,-0.036,0,202,21,25,14,81,6,41,669.092,23.809,-0.987,-0.309,-7.673,2.458
5.038,-2.461,0.011,-0.91,0.832,14.676,-0.041,0.071,0.951,94.449,5.25,157,-0.048,0,202,21,25,14,81,6,41,669.092,23.593,-0.991,-0.291,-7.597,2.46
5.058,-2.477,0.027,-0.793,1.02,14.727,-0.04,0.074,0.942,94.911,5.25,157,-0.057,0,202,21,25,14,81,6,41,669.092,23.482,-0.99,-0.244,-7.558,2.46
5.078,-2.477,0.038,-0.703,1.102,14.746,-0.036,0.077,0.929,94.911,5.25,157,-0.07,0,202,21,25,14,81,6,41,669.092,23.593,-0.992,-0.214,-7.597,2.461
5.098,-2.483,0.049,-0.594,1.156,14.75,-0.035,0.078,0.924,95.367,5.25,157,-0.075,0,202,21,25,14,81,6,41,669.092,23.612,-0.992,-0.218,-7.605,2.462
5.118,-2.477,0.066,-0.465,1.191,14.75,-0.035,0.079,0.921,95.828,5.25,157,-0.079,0,202,21,25,14,81,6,41,669.092,23.513,-0.993,-0.207,-7.569,2.462
5.138,-2.472,0.066,-0.168,1.203,14.758,-0.035,0.08,0.919,95.828,5.25,157,-0.081,0,202,21,23,14,81,6,41,669.092,23.49,-0.996,-0.205,-7.561,2.46
5.158,-2.461,0.071,-0.008,1.168,14.773,-0.037,0.08,0.921,96.29,5.25,157,-0.078,0,202,21,23,14,81,6,41,669.092,23.486,-0.998,-0.214,-7.56,2.459
5.178,-2.45,0.071,0.152,1.109,14.797,-0.039,0.079,0.925,96.757,5.25,157,-0.074,0,202,21,23,14,81,6,41,669.092,23.624,-0.997,-0.212,-7.608,2.459
5.198,-2.428,0.071,0.449,0.945,14.852,-0.04,0.079,0.931,96.757,5.25,157,-0.068,0,202,21,23,14,81,6,41,669.092,23.557,-1,-0.206,-7.585,2.458
5.218,-2.411,0.071,0.578,0.859,14.871,-0.041,0.078,0.949,97.218,5.25,157,-0.06,0,202,21,23,14,81,6,41,669.092,23.51,-1,-0.232,-7.568,2.457
5.238,-2.395,0.071,0.691,0.785,14.883,-0.04,0.075,0.96,97.218,5.25,157,-0.039,0,202,21,23,14,81,6,41,669.092,23.526,-0.999,-0.231,-7.573,2.456
5.258,-2.379,0.071,0.797,0.711,14.891,-0.039,0.073,0.972,97.679,5.25,157,-0.027,0,202,21,23,14,81,6,41,669.092,23.598,-0.99,-0.222,-7.599,2.456
5.278,-2.346,0.071,0.969,0.605,14.906,-0.039,0.072,0.984,98.146,5.25,157,-0.016,0,202,21,23,14,81,6,41,669.092,23.573,-0.99,-0.205,-7.59,2.457
5.298,-2.335,0.071,1.008,0.574,14.922,-0.039,0.068,1.008,98.146,5.25,157,0.009,0,202,21,23,14,81,6,41,669.092,23.52,-0.994,-0.199,-7.572,2.457
5.318,-2.324,0.071,1.016,0.562,14.945,-0.04,0.065,1.02,98.613,5.25,157,0.021,0,202,21,23,14,81,6,41,669.092,23.588,-0.989,-0.222,-7.595,2.456
5.338,-2.302,0.071,0.945,0.559,14.984,-0.042,0.063,1.033,99.08,5.25,157,0.034,0,202,21,23,14,81,6,41,669.092,23.485,-0.989,-0.264,-7.56,2.458
5.358,-2.296,0.071,0.859,0.578,15.012,-0.045,0.059,1.056,99.08,5.25,157,0.046,0,202,21,23,14,81,6,41,669.092,23.486,-0.994,-0.29,-7.56,2.461
5.378,-2.296,0.077,0.746,0.609,15.039,-0.046,0.057,1.066,99.553,5.25,157,0.067,0,202,21,23,14,81,6,41,669.092,23.483,-0.995,-0.288,-7.559,2.458
5.398,-2.296,0.082,0.605,0.652,15.059,-0.046,0.055,1.074,100.02,5.25,157,0.075,0,202,21,23,14,81,6,41,669.092,23.507,-0.99,-0.296,-7.567,2.458
5.418,-2.307,0.088,0.262,0.719,15.105,-0.046,0.053,1.082,100.02,5.25,157,0.083,0,202,21,23,14,81,6,41,669.092,23.55,-0.989,-0.307,-7.582,2.457
5.438,-2.318,0.088,0.074,0.742,15.125,-0.046,0.053,1.091,100.492,5.125,157,0.092,0,202,21,23,14,81,6,41,669.092,23.517,-0.99,-0.312,-7.571,2.457
5.458,-2.329,0.088,-0.125,0.758,15.152,-0.045,0.052,1.091,100.964,5.125,157,0.092,0,202,21,23,14,81,6,41,669.092,23.483,-0.986,-0.313,-7.559,2.457
5.478,-2.362,0.088,-0.504,0.742,15.215,-0.044,0.052,1.089,100.964,5.125,157,0.09,0,202,21,23,14,81,6,41,669.092,23.487,-0.982,-0.317,-7.56,2.459
5.498,-2.379,0.088,-0.672,0.711,15.242,-0.044,0.053,1.084,101.442,5.125,157,0.085,0,202,21,23,15,81,6,41,669.092,23.494,-0.984,-0.313,-7.563,2.458
5.518,-2.395,0.082,-0.812,0.668,15.266,-0.043,0.057,1.062,101.442,5.125,157,0.062,0,202,21,23,15,81,6,41,669.092,23.501,-0.986,-0.308,-7.565,2.46
5.538,-2.411,0.082,-0.914,0.621,15.281,-0.042,0.058,1.047,101.915,5.125,157,0.048,0,202,21,23,15,81,6,41,669.092,23.488,-0.986,-0.309,-7.561,2.459
5.558,-2.439,0.071,-1.023,0.527,15.289,-0.041,0.059,1.031,102.393,5.125,157,0.032,0,202,21,25,15,81,6,41,669.092,23.484,-0.986,-0.311,-7.559,2.46
5.578,-2.45,0.071,-1.031,0.496,15.289,-0.04,0.06,0.996,102.393,5.125,157,-0.003,0,202,21,25,15,81,6,41,669.092,23.594,-0.984,-0.309,-7.598,2.462
5.598,-2.461,0.071,-1.008,0.477,15.293,-0.039,0.062,0.979,102.87,5.125,157,-0.02,0,202,21,25,15,81,6,41,669.092,23.478,-0.99,-0.307,-7.557,2.461
5.618,-2.477,0.066,-0.871,0.477,15.297,-0.038,0.062,0.962,103.348,5.125,157,-0.037,0,202,21,25,15,81,6,41,669.092,23.485,-0.991,-0.308,-7.56,2.463
5.638,-2.483,0.066,-0.758,0.488,15.305,-0.036,0.063,0.948,103.348,5.125,157,-0.052,0,202,21,25,15,81,6,41,669.092,23.481,-0.992,-0.311,-7.558,2.462
5.658,-2.483,0.066,-0.625,0.504,15.305,-0.034,0.065,0.923,103.826,5.125,157,-0.077,0,202,23,25,15,81,6,41,669.092,23.543,-0.997,-0.314,-7.58,2.462
5.678,-2.477,0.06,-0.465,0.527,15.305,-0.033,0.066,0.913,104.304,5.125,157,-0.087,0,202,23,25,15,81,6,41,669.092,23.608,-0.999,-0.31,-7.603,2.462
5.699,-2.466,0.066,-0.133,0.586,15.309,-0.033,0.067,0.905,104.304,5.125,157,-0.094,0,202,23,25,15,81,6,41,669.092,23.503,-0.996,-0.311,-7.566,2.461
5.719,-2.455,0.066,0.039,0.621,15.316,-0.036,0.067,0.9,104.782,5.125,157,-0.1,0,202,23,25,15,81,6,41,669.092,23.511,-0.995,-0.31,-7.569,2.46
5.739,-2.444,0.071,0.207,0.652,15.332,-0.038,0.068,0.901,105.266,5.125,157,-0.098,0,202,23,25,15,81,6,41,669.092,23.496,-0.995,-0.307,-7.564,2.459
5.759,-2.422,0.066,0.488,0.676,15.355,-0.039,0.069,0.907,105.266,5.125,157,-0.093,0,202,23,25,15,81,6,41,669.092,23.482,-0.996,-0.312,-7.558,2.458
5.779,-2.411,0.066,0.602,0.695,15.395,-0.039,0.07,0.914,105.743,5.125,157,-0.085,0,202,23,25,15,81,6,41,669.092,23.483,-0.997,-0.309,-7.558,2.459
5.799,-2.395,0.066,0.699,0.68,15.41,-0.037,0.071,0.936,105.743,5.125,157,-0.064,0,202,23,25,15,81,6,41,669.092,23.484,-0.994,-0.308,-7.559,2.458
5.819,-2.384,0.06,0.777,0.641,15.434,-0.035,0.07,0.949,106.227,5.125,157,-0.051,0,202,23,25,15,81,6,41,669.092,23.514,-1.001,-0.306,-7.57,2.461
5.839,-2.351,0.049,0.883,0.512,15.477,-0.033,0.069,0.962,106.71,5,157,-0.038,0,202,23,25,15,81,6,41,669.092,23.772,-0.999,-0.305,-7.66,2.46
5.859,-2.34,0.038,0.91,0.434,15.496,-0.032,0.068,0.989,106.71,5,157,-0.025,0,202,23,25,15,81,6,41,669.092,23.552,-0.995,-0.306,-7.583,2.459
5.879,-2.329,0.027,0.918,0.352,15.52,-0.034,0.065,1.003,107.194,5,157,0.004,0,202,23,25,15,81,6,41,669.092,23.495,-0.997,-0.307,-7.563,2.459
5.899,-2.313,0.022,0.898,0.262,15.543,-0.036,0.065,1.018,107.682,5,157,0.018,0,202,23,25,15,81,6,41,669.092,23.538,-0.997,-0.308,-7.578,2.459
5.919,-2.307,0.005,0.781,0.121,15.59,-0.037,0.064,1.03,107.682,5,157,0.031,0,202,23,25,15,81,6,41,669.092,23.483,-0.993,-0.303,-7.559,2.459
5.939,-2.302,-0.005,0.68,0.074,15.609,-0.038,0.061,1.054,108.166,5,157,0.055,0,202,23,25,15,81,6,41,669.092,23.479,-0.987,-0.306,-7.558,2.46
5.959,-2.296,-0.016,0.57,0.051,15.621,-0.038,0.059,1.064,108.655,5,157,0.065,0,202,23,25,15,94,6,41,669.092,23.485,-0.977,-0.307,-7.56,2.46
5.979,-2.302,-0.027,0.34,0.07,15.641,-0.037,0.057,1.072,108.655,5,157,0.073,0,202,23,25,15,94,5,41,669.092,23.481,-0.983,-0.308,-7.558,2.459
5.999,-2.307,-0.027,0.219,0.113,15.656,-0.037,0.056,1.084,109.144,5,157,0.079,0,202,23,25,15,94,5,41,669.092,23.558,-0.977,-0.307,-7.585,2.46
6.019,-2.313,-0.027,0.09,0.176,15.672,-0.038,0.055,1.088,109.633,5,157,0.088,0,202,23,25,15,94,5,41,669.092,23.497,-0.982,-0.309,-7.564,2.46
6.039,-2.329,-0.033,-0.043,0.242,15.691,-0.04,0.055,1.089,109.633,5,157,0.09,0,202,23,25,15,94,5,41,669.092,23.497,-0.976,-0.31,-7.564,2.461
6.059,-2.34,-0.033,-0.328,0.387,15.746,-0.042,0.055,1.089,110.127,5,157,0.09,0,202,23,25,15,94,5,41,669.092,23.491,-0.984,-0.311,-7.562,2.461
6.079,-2.351,-0.033,-0.473,0.457,15.773,-0.045,0.057,1.083,110.127,5,157,0.084,0,202,23,25,15,94,5,41,669.092,23.561,-0.98,-0.31,-7.586,2.461
6.099,-2.368,-0.033,-0.613,0.516,15.793,-0.046,0.058,1.078,110.616,5,157,0.078,0,202,23,25,15,94,5,41,669.092,23.548,-0.987,-0.314,-7.581,2.462
6.119,-2.406,-0.038,-0.852,0.59,15.836,-0.047,0.059,1.07,111.11,5,157,0.071,0,202,23,25,15,94,5,41,669.092,23.489,-0.989,-0.31,-7.561,2.461
6.139,-2.422,-0.038,-0.949,0.605,15.859,-0.046,0.059,1.06,111.11,5,157,0.061,0,202,23,25,15,94,5,41,669.092,23.51,-0.98,-0.315,-7.569,2.461
6.159,-2.439,-0.044,-1.023,0.602,15.887,-0.045,0.061,1.036,111.61,5,157,0.037,0,202,23,25,15,94,5,41,669.092,23.484,-0.983,-0.318,-7.56,2.462
6.179,-2.455,-0.049,-1.082,0.578,15.918,-0.044,0.062,1.023,112.104,5,157,0.024,0,202,23,25,15,94,5,41,669.092,23.484,-0.99,-0.318,-7.559,2.462
6.199,-2.494,-0.066,-1.148,0.473,15.992,-0.044,0.062,1.01,112.104,5,157,0.011,0,202,23,25,15,94,5,41,669.092,23.484,-0.989,-0.326,-7.559,2.463
6.219,-2.505,-0.077,-1.152,0.398,16.027,-0.042,0.064,0.984,112.604,5,157,-0.016,0,202,23,25,15,94,5,41,669.092,23.485,-0.982,-0.333,-7.56,2.466
6.239,-2.521,-0.082,-1.137,0.328,16.062,-0.041,0.065,0.971,113.11,5,157,-0.028,0,202,23,25,15,94,5,41,669.092,23.491,-0.985,-0.329,-7.561,2.469
6.259,-2.538,-0.104,-1.023,0.262,16.09,-0.04,0.067,0.959,113.11,5,157,-0.04,0,202,23,27,15,94,5,41,669.092,23.679,-0.991,-0.337,-7.627,2.471
6.279,-2.549,-0.11,-0.934,0.152,16.109,-0.039,0.069,0.948,113.61,5,157,-0.051,0,202,23,27,15,94,5,41,669.092,23.529,-0.988,-0.329,-7.575,2.474
6.299,-2.549,-0.121,-0.836,0.129,16.109,-0.036,0.069,0.928,113.61,5,157,-0.071,0,202,23,27,15,94,5,41,669.092,23.519,-0.989,-0.359,-7.572,2.472
6.319,-2.554,-0.126,-0.723,0.129,16.109,-0.036,0.07,0.921,114.109,5,157,-0.078,0,202,23,27,15,94,5,41,669.092,23.497,-0.997,-0.353,-7.564,2.47
6.339,-2.56,-0.132,-0.473,0.207,16.125,-0.036,0.071,0.917,114.615,5,157,-0.082,0,202,23,27,15,94,5,41,669.092,23.505,-0.994,-0.336,-7.566,2.469
6.359,-2.554,-0.132,-0.332,0.277,16.137,-0.036,0.073,0.916,114.615,5,157,-0.084,0,202,23,27,15,94,5,41,669.092,23.496,-0.989,-0.327,-7.563,2.47
6.379,-2.549,-0.137,-0.191,0.355,16.141,-0.035,0.075,0.918,115.12,4.875,157,-0.081,0,202,23,27,15,94,5,41,669.092,23.499,-0.969,-0.319,-7.564,2.471
6.4,-2.532,-0.137,-0.051,0.434,16.137,-0.034,0.077,0.921,115.626,4.875,157,-0.078,0,202,23,27,15,94,5,41,669.092,23.487,-0.991,-0.371,-7.561,2.473
6.42,-2.521,-0.132,0.219,0.578,16.121,-0.033,0.078,0.927,115.626,4.875,157,-0.073,0,202,23,27,15,94,5,41,669.092,23.518,-0.994,-0.34,-7.571,2.47
6.44,-2.51,-0.132,0.332,0.637,16.117,-0.032,0.079,0.941,116.125,4.875,157,-0.059,0,202,23,27,15,94,5,41,669.092,23.493,-0.991,-0.327,-7.563,2.466
6.46,-2.499,-0.137,0.426,0.672,16.113,-0.034,0.08,0.95,116.631,4.875,157,-0.049,0,202,25,27,15,94,5,41,669.092,23.537,-0.974,-0.377,-7.578,2.464
6.48,-2.477,-0.137,0.578,0.699,16.113,-0.035,0.081,0.962,116.631,4.875,157,-0.038,0,202,25,27,15,94,5,41,669.092,23.518,-0.978,-0.364,-7.571,2.462
6.5,-2.472,-0.137,0.617,0.691,16.121,-0.036,0.082,0.986,117.136,4.875,157,-0.026,0,202,25,27,15,94,5,41,669.092,23.528,-0.979,-0.351,-7.574,2.462
6.52,-2.461,-0.143,0.637,0.668,16.125,-0.038,0.082,1,117.136,4.875,157,0.001,0,202,25,27,15,94,5,41,669.092,23.584,-0.963,-0.358,-7.594,2.461
6.54,-2.455,-0.143,0.629,0.629,16.125,-0.037,0.083,1.013,117.642,4.875,157,0.013,0,202,25,27,15,94,5,41,669.092,23.498,-0.985,-0.349,-7.565,2.461
6.56,-2.444,-0.154,0.551,0.523,16.125,-0.037,0.082,1.025,118.141,4.875,157,0.025,0,202,25,27,15,94,5,41,669.092,23.597,-0.972,-0.375,-7.599,2.462
6.58,-2.439,-0.159,0.488,0.469,16.117,-0.037,0.079,1.046,118.141,4.875,157,0.046,0,202,25,27,15,94,5,41,669.092,23.505,-0.972,-0.405,-7.566,2.461
6.6,-2.439,-0.165,0.41,0.418,16.113,-0.038,0.077,1.054,118.647,4.875,157,0.055,0,202,25,27,15,94,5,41,669.092,23.489,-0.983,-0.409,-7.561,2.461
6.62,-2.444,-0.181,0.227,0.328,16.121,-0.039,0.075,1.061,119.152,4.875,157,0.062,0,202,25,27,15,94,5,41,669.092,23.689,-0.974,-0.449,-7.631,2.459
6.64,-2.444,-0.187,0.117,0.301,16.129,-0.041,0.074,1.068,119.152,4.875,157,0.069,0,202,25,27,15,94,5,41,669.092,23.653,-0.969,-0.4,-7.618,2.46
6.66,-2.455,-0.192,-0.008,0.285,16.121,-0.043,0.071,1.076,119.658,4.875,157,0.077,0,202,25,27,15,94,5,41,669.092,23.496,-0.963,-0.399,-7.563,2.46
6.68,-2.461,-0.203,-0.148,0.277,16.117,-0.043,0.07,1.077,120.157,4.75,157,0.078,0,202,25,27,15,94,5,41,669.092,23.501,-0.984,-0.414,-7.565,2.461
6.7,-2.483,-0.203,-0.422,0.32,16.102,-0.043,0.069,1.077,120.157,4.75,157,0.078,0,202,25,27,15,94,5,41,669.092,23.533,-0.987,-0.46,-7.576,2.461
6.72,-2.499,-0.203,-0.559,0.375,16.09,-0.043,0.067,1.071,120.663,4.75,157,0.072,0,202,25,27,15,94,5,41,669.092,23.599,-0.974,-0.418,-7.6,2.461
6.74,-2.516,-0.203,-0.687,0.441,16.078,-0.042,0.067,1.066,121.168,4.75,157,0.067,0,202,25,27,15,94,5,41,669.092,23.488,-0.984,-0.41,-7.561,2.461
6.76,-2.549,-0.198,-0.809,0.52,16.066,-0.042,0.066,1.059,121.168,4.75,157,0.06,0,202,25,27,15,94,5,41,669.092,23.496,-0.989,-0.404,-7.563,2.462
6.78,-2.571,-0.192,-1.027,0.68,16.055,-0.042,0.066,1.05,121.668,4.75,157,0.051,0,202,25,27,15,94,5,41,669.092,23.583,-0.984,-0.372,-7.594,2.46
6.8,-2.587,-0.192,-1.121,0.758,16.051,-0.041,0.07,1.029,121.668,4.75,157,0.03,0,202,25,27,15,94,5,41,669.092,23.5,-0.981,-0.393,-7.565,2.46
6.82,-2.609,-0.187,-1.195,0.82,16.043,-0.04,0.072,1.016,122.168,4.75,157,0.017,0,202,25,27,15,94,5,41,669.092,23.742,-0.974,-0.39,-7.649,2.461
6.84,-2.642,-0.181,-1.258,0.898,16.027,-0.039,0.074,1.002,122.673,4.75,157,0.003,0,202,25,27,15,94,5,41,669.092,23.53,-0.983,-0.366,-7.575,2.46
6.86,-2.653,-0.181,-1.242,0.906,16.012,-0.036,0.077,0.975,122.673,4.75,157,-0.01,0,202,25,27,15,94,5,41,669.092,23.509,-0.979,-0.386,-7.568,2.46
6.88,-2.67,-0.181,-1.203,0.891,15.996,-0.036,0.08,0.961,123.173,4.75,157,-0.038,0,202,25,27,15,94,5,41,669.092,23.586,-0.972,-0.388,-7.595,2.46
6.9,-2.681,-0.181,-1.125,0.859,15.977,-0.035,0.081,0.948,123.673,4.75,157,-0.051,0,202,25,27,15,94,5,41,669.092,23.52,-0.979,-0.393,-7.572,2.46
6.92,-2.686,-0.187,-0.902,0.773,15.957,-0.035,0.081,0.936,123.673,4.75,157,-0.063,0,202,25,27,15,94,5,41,669.092,23.501,-0.971,-0.418,-7.565,2.46
6.94,-2.686,-0.187,-0.766,0.723,15.961,-0.038,0.082,0.92,124.173,4.75,157,-0.079,0,202,25,27,15,94,5,41,669.092,23.786,-0.973,-0.462,-7.665,2.46
6.96,-2.686,-0.192,-0.605,0.68,15.961,-0.039,0.082,0.915,124.673,4.75,157,-0.084,0,202,25,27,15,109,5,41,669.092,23.695,-0.975,-0.435,-7.633,2.46
6.98,-2.675,-0.203,-0.242,0.598,15.957,-0.04,0.082,0.912,124.673,4.75,157,-0.087,0,202,25,27,15,109,5,41,669.092,23.487,-0.975,-0.424,-7.56,2.459
7,-2.664,-0.203,-0.043,0.57,15.953,-0.039,0.081,0.911,125.173,4.75,157,-0.087,0,202,25,27,15,109,5,41,669.092,23.499,-0.973,-0.376,-7.565,2.459
7.02,-2.653,-0.209,0.152,0.551,15.945,-0.038,0.08,0.914,125.673,4.75,157,-0.085,0,202,25,27,15,109,5,41,669.092,23.487,-0.958,-0.346,-7.56,2.46
7.04,-2.615,-0.209,0.531,0.543,15.914,-0.037,0.08,0.918,125.673,4.75,157,-0.081,0,202,25,27,15,109,5,41,669.092,23.61,-0.974,-0.322,-7.603,2.46
7.06,-2.598,-0.209,0.703,0.566,15.898,-0.033,0.079,0.93,126.167,4.75,157,-0.076,0,202,25,27,15,109,5,41,669.092,23.565,-0.981,-0.3,-7.587,2.458
7.08,-2.576,-0.209,0.855,0.59,15.887,-0.031,0.077,0.939,126.167,4.75,157,-0.06,0,202,26,29,15,109,5,41,669.092,23.503,-0.975,-0.288,-7.566,2.458
7.101,-2.554,-0.214,0.988,0.609,15.875,-0.031,0.078,0.951,126.667,4.75,157,-0.048,0,202,26,29,15,109,5,41,669.092,23.538,-0.979,-0.279,-7.578,2.457
7.121,-2.516,-0.214,1.176,0.629,15.84,-0.029,0.079,0.964,127.167,4.75,157,-0.035,0,202,26,29,15,109,5,41,669.092,23.498,-0.977,-0.258,-7.564,2.458
7.141,-2.499,-0.214,1.211,0.617,15.824,-0.027,0.08,0.993,127.167,4.75,157,-0.007,0,202,26,29,15,109,5,41,669.092,23.486,-0.984,-0.252,-7.56,2.457
7.161,-2.483,-0.22,1.199,0.598,15.805,-0.026,0.08,1.008,127.661,4.75,157,0.008,0,202,26,29,15,109,5,41,669.092,23.485,-0.987,-0.249,-7.56,2.458
7.181,-2.466,-0.225,1.047,0.578,15.785,-0.025,0.079,1.023,128.156,4.75,157,0.024,0,202,26,29,15,109,5,41,669.092,23.499,-0.988,-0.252,-7.565,2.457
7.201,-2.461,-0.225,0.922,0.547,15.742,-0.025,0.079,1.039,128.156,4.75,157,0.04,0,202,26,29,15,109,5,41,669.092,23.49,-0.988,-0.251,-7.561,2.456
7.221,-2.461,-0.231,0.762,0.543,15.715,-0.023,0.078,1.067,128.644,4.75,157,0.067,0,202,26,29,15,109,5,41,669.092,23.501,-0.985,-0.253,-7.565,2.457
7.241,-2.461,-0.231,0.578,0.539,15.684,-0.023,0.077,1.079,129.139,4.75,157,0.078,0,202,26,29,15,109,5,41,669.092,23.492,-0.981,-0.26,-7.561,2.457
7.261,-2.477,-0.231,0.156,0.547,15.621,-0.023,0.076,1.088,129.139,4.75,157,0.088,0,202,26,29,15,109,5,41,669.092,23.483,-0.989,-0.261,-7.559,2.457
7.281,-2.488,-0.236,-0.062,0.555,15.586,-0.022,0.074,1.096,129.622,4.75,157,0.097,0,202,26,29,15,109,5,41,669.092,23.482,-0.994,-0.276,-7.558,2.457
7.301,-2.499,-0.236,-0.27,0.562,15.547,-0.021,0.073,1.096,130.111,4.75,157,0.096,0,202,26,29,15,109,5,41,669.092,23.482,-0.997,-0.298,-7.559,2.457
7.321,-2.532,-0.242,-0.625,0.562,15.512,-0.021,0.072,1.092,130.111,4.75,157,0.092,0,202,26,29,15,109,5,41,669.092,23.483,-0.995,-0.378,-7.559,2.457
7.341,-2.543,-0.242,-0.766,0.555,15.449,-0.02,0.072,1.086,130.6,4.75,157,0.086,0,202,26,29,15,109,5,41,669.092,23.527,-1.001,-0.457,-7.574,2.457
7.361,-2.56,-0.247,-0.879,0.543,15.418,-0.022,0.071,1.069,130.6,4.75,157,0.069,0,202,26,29,15,109,5,41,669.092,23.507,-1.001,-0.41,-7.567,2.457
7.381,-2.576,-0.247,-0.969,0.535,15.387,-0.021,0.071,1.057,131.083,4.75,157,0.057,0,202,26,29,15,109,5,41,669.092,23.488,-1.002,-0.442,-7.561,2.456
7.401,-2.604,-0.258,-1.074,0.5,15.344,-0.021,0.069,1.043,131.567,4.75,157,0.043,0,202,26,29,15,109,5,41,669.092,23.498,-1.003,-0.508,-7.563,2.457
7.421,-2.62,-0.264,-1.086,0.477,15.324,-0.021,0.069,1.014,131.567,4.75,157,0.029,0,202,26,29,15,109,5,41,669.092,23.492,-1.003,-0.478,-7.562,2.457
7.441,-2.631,-0.269,-1.07,0.445,15.305,-0.021,0.069,0.999,132.045,4.75,157,-0.001,0,202,26,29,15,109,5,41,669.092,23.483,-0.999,-0.431,-7.559,2.459
7.461,-2.642,-0.275,-1.031,0.406,15.289,-0.021,0.069,0.984,132.523,4.75,157,-0.016,0,202,26,29,15,109,5,41,669.092,23.484,-0.999,-0.328,-7.56,2.459
7.481,-2.653,-0.291,-0.867,0.332,15.254,-0.021,0.069,0.969,132.523,4.75,157,-0.03,0,202,26,27,15,109,5,41,669.092,23.485,-0.998,-0.306,-7.559,2.46
7.501,-2.653,-0.297,-0.762,0.312,15.234,-0.02,0.068,0.943,133,4.75,157,-0.057,0,202,26,27,15,109,5,41,669.092,23.533,-0.996,-0.298,-7.576,2.462
7.521,-2.653,-0.297,-0.645,0.309,15.211,-0.02,0.069,0.932,133.478,4.75,157,-0.067,0,202,26,27,15,109,5,41,669.092,23.481,-0.999,-0.29,-7.558,2.462
7.541,-2.653,-0.308,-0.383,0.32,15.191,-0.019,0.069,0.923,133.478,4.75,157,-0.077,0,202,26,27,15,109,5,41,669.092,23.483,-0.996,-0.282,-7.559,2.462
7.561,-2.648,-0.313,-0.25,0.332,15.164,-0.019,0.069,0.917,133.956,4.75,157,-0.083,0,202,26,27,15,109,5,41,669.092,23.488,-0.991,-0.28,-7.561,2.46
7.581,-2.642,-0.313,-0.109,0.359,15.152,-0.019,0.071,0.911,133.956,4.75,157,-0.088,0,202,26,27,15,109,5,41,669.092,23.482,-0.994,-0.28,-7.558,2.46
7.601,-2.631,-0.313,0.035,0.398,15.141,-0.018,0.072,0.912,134.429,4.75,157,-0.087,0,202,26,27,15,109,5,41,669.092,23.478,-0.99,-0.278,-7.557,2.462
7.621,-2.609,-0.319,0.281,0.484,15.113,-0.018,0.073,0.916,134.901,4.75,157,-0.083,0,202,26,27,15,109,5,41,669.092,23.476,-0.992,-0.278,-7.556,2.46
7.641,-2.604,-0.319,0.375,0.523,15.109,-0.018,0.074,0.93,134.901,4.75,157,-0.069,0,202,26,27,15,109,5,41,669.092,23.488,-0.988,-0.284,-7.561,2.46
7.661,-2.593,-0.319,0.441,0.547,15.098,-0.019,0.074,0.942,135.374,4.75,157,-0.058,0,202,26,27,15,109,5,41,669.092,23.571,-0.99,-0.277,-7.59,2.459
7.681,-2.576,-0.319,0.523,0.582,15.09,-0.021,0.074,0.955,135.846,4.75,157,-0.045,0,202,26,27,15,109,5,41,669.092,23.497,-0.989,-0.266,-7.564,2.458
7.701,-2.565,-0.324,0.535,0.598,15.086,-0.022,0.075,0.969,135.846,4.75,157,-0.031,0,202,26,27,15,109,5,41,669.092,23.494,-0.994,-0.265,-7.563,2.457
7.721,-2.56,-0.324,0.527,0.598,15.086,-0.025,0.075,0.997,136.318,4.75,157,-0.002,0,202,26,27,15,109,5,41,669.092,23.538,-0.997,-0.253,-7.578,2.457
7.741,-2.549,-0.324,0.516,0.594,15.082,-0.026,0.076,1.011,136.791,4.75,157,0.012,0,202,26,27,15,109,5,41,669.092,23.509,-1.014,-0.254,-7.569,2.457
7.761,-2.543,-0.335,0.441,0.566,15.078,-0.026,0.076,1.025,136.791,4.75,157,0.025,0,202,26,27,15,109,5,41,669.092,23.57,-0.995,-0.249,-7.589,2.459
7.782,-2.538,-0.335,0.387,0.547,15.078,-0.029,0.076,1.048,137.263,4.75,157,0.037,0,202,26,29,15,109,5,41,669.092,23.568,-0.997,-0.244,-7.589,2.457
7.802,-2.538,-0.341,0.324,0.527,15.078,-0.031,0.076,1.059,137.741,4.75,157,0.059,0,202,26,29,15,109,5,41,669.092,23.489,-1.021,-0.246,-7.561,2.458
7.822,-2.532,-0.346,0.25,0.508,15.078,-0.032,0.076,1.068,137.741,4.75,157,0.068,0,202,26,29,15,109,5,41,669.092,23.485,-0.999,-0.212,-7.559,2.458
7.842,-2.538,-0.346,0.086,0.512,15.062,-0.033,0.075,1.074,138.208,4.75,157,0.075,0,202,26,29,15,109,5,41,669.092,23.486,-0.998,-0.213,-7.56,2.458
7.862,-2.543,-0.346,-0.008,0.531,15.059,-0.034,0.073,1.08,138.208,4.75,157,0.081,0,202,26,29,15,109,5,41,669.092,23.482,-0.999,-0.225,-7.559,2.457
7.882,-2.549,-0.346,-0.102,0.555,15.051,-0.034,0.071,1.08,138.68,4.75,157,0.081,0,202,26,29,15,109,5,41,669.092,23.482,-1.002,-0.232,-7.558,2.458
7.902,-2.56,-0.341,-0.281,0.625,15.043,-0.034,0.07,1.077,139.153,4.75,157,0.078,0,202,26,29,15,109,5,41,669.092,23.481,-1.008,-0.237,-7.558,2.458
7.922,-2.571,-0.341,-0.371,0.664,15.043,-0.034,0.068,1.064,139.153,4.75,157,0.072,0,202,26,29,15,109,5,41,669.092,23.529,-1.011,-0.237,-7.575,2.457
7.942,-2.576,-0.335,-0.453,0.695,15.043,-0.034,0.068,1.054,139.625,4.75,157,0.055,0,202,26,29,15,109,5,41,669.092,23.491,-1.006,-0.244,-7.562,2.456
7.962,-2.598,-0.335,-0.531,0.723,15.039,-0.032,0.069,1.043,140.092,4.75,157,0.044,0,202,26,29,15,125,5,41,669.092,23.487,-1.034,-0.261,-7.56,2.457
7.982,-2.615,-0.335,-0.668,0.723,15.023,-0.032,0.069,1.031,140.092,4.75,157,0.032,0,202,26,29,15,125,5,41,669.092,23.502,-1.035,-0.266,-7.565,2.458
8.002,-2.626,-0.341,-0.723,0.703,15.016,-0.031,0.068,1.005,140.565,4.75,157,0.006,0,202,26,29,15,125,5,41,669.092,23.501,-1.004,-0.292,-7.565,2.459
8.022,-2.637,-0.341,-0.773,0.676,15.016,-0.03,0.068,0.993,141.031,4.75,157,-0.006,0,202,26,29,15,125,5,41,669.092,23.481,-1.033,-0.295,-7.559,2.458
8.042,-2.659,-0.346,-0.84,0.609,15.02,-0.029,0.067,0.982,141.031,4.75,157,-0.018,0,202,26,29,15,125,5,41,669.092,23.479,-1.012,-0.296,-7.557,2.459
8.062,-2.67,-0.352,-0.852,0.574,15.035,-0.029,0.067,0.972,141.504,4.75,157,-0.028,0,202,26,29,15,125,5,41,669.092,23.482,-1.029,-0.304,-7.558,2.46
8.082,-2.681,-0.357,-0.844,0.539,15.039,-0.027,0.067,0.955,141.504,4.75,157,-0.045,0,202,26,29,15,125,5,41,669.092,23.581,-1.015,-0.3,-7.593,2.461
8.102,-2.686,-0.363,-0.828,0.508,15.035,-0.026,0.066,0.947,141.976,4.75,157,-0.052,0,202,26,29,15,125,5,41,669.092,23.647,-1.008,-0.298,-7.616,2.461
8.122,-2.703,-0.368,-0.762,0.465,15.039,-0.024,0.065,0.94,142.443,4.75,157,-0.059,0,202,26,29,15,125,5,41,668.789,23.485,-1.055,-0.299,-7.56,2.46
8.142,-2.708,-0.374,-0.699,0.449,15.043,-0.022,0.066,0.93,142.443,4.75,157,-0.069,0,202,26,29,15,125,5,41,668.789,23.505,-0.998,-0.293,-7.567,2.46
8.162,-2.708,-0.379,-0.617,0.43,15.039,-0.021,0.066,0.927,142.916,4.75,157,-0.073,0,202,26,29,15,125,5,41,668.789,23.486,-1.012,-0.292,-7.56,2.46
8.182,-2.697,-0.39,-0.352,0.41,15.031,-0.02,0.066,0.925,143.388,4.75,157,-0.074,0,202,26,29,15,125,5,41,668.789,23.541,-1.052,-0.263,-7.579,2.458
8.202,-2.686,-0.396,-0.184,0.359,15.016,-0.019,0.068,0.924,143.388,4.75,157,-0.075,0,202,26,29,15,125,5,41,668.789,23.61,-1.024,-0.231,-7.603,2.46
8.222,-2.67,-0.401,0.012,0.336,15.008,-0.017,0.072,0.927,143.855,4.75,157,-0.072,0,202,26,29,15,125,5,41,668.789,23.489,-1.047,-0.247,-7.561,2.459
8.242,-2.653,-0.412,0.211,0.32,15,-0.016,0.075,0.933,144.327,4.75,157,-0.067,0,202,26,29,15,125,5,41,668.789,23.491,-1.079,-0.23,-7.562,2.458
8.262,-2.626,-0.417,0.559,0.312,14.965,-0.015,0.077,0.941,144.327,4.75,157,-0.059,0,202,26,29,15,125,5,41,668.789,23.48,-1.003,-0.229,-7.557,2.458
